,연도,지역구,시설군,건물명,주소,lng,lat
0,2019,마포구,영화상영관,씨제이씨지브이 홍대, 서울시 마포구 양화로 153  ,126.9226319,37.55649437
1,2019,노원구,영화상영관,더 숲 아트시네마, 서울특별시 노원구 상계동 727-1번지 지하1층 ~ 2층  ,127.0614398,37.65416086
2,2019,노원구,영화상영관,롯데시네마 수락산, 서울특별시 노원구 상계동 1132-35번지 3층~9층  ,127.0556509,37.67655842
3,2019,노원구,영화상영관,CGV 하계관, 서울특별시 노원구 섬밭로 258  ,127.0649151,37.63910978
4,2019,노원구,영화상영관,CGV 중계관, 서울특별시 노원구 동일로 204가길12 ,127.068668,37.63985808
5,2019,노원구,영화상영관,롯데시네마노원, 서울특별시 노원구 동일로 1414  ,127.0613917,37.65527873
6,2019,마포구,영화상영관,롯데시네마 합정관, 서울시 마포구 양화로 45 2층  ,126.9139502,37.5515008
7,2019,마포구,영화상영관,롯데시네마 홍대입구관, 서울시 마포구 양화로 176 8층  ,126.9249862,37.55724678
8,2019,마포구,영화상영관,상상마당 시네마, 서울시 마포구 어울마당로 65 지하4층  ,126.921063,37.5509577
9,2019,강북구,영화상영관,롯데시네마 수유 , 강북구 도봉로 308  ,127.0238352,37.63566409
10,2019,강북구,영화상영관,CGV 수유점, 강북구 도봉로 399  ,127.0298062,37.64240751
11,2019,강북구,영화상영관,CGV 미아점, 강북구 도봉로 34  ,127.0307216,37.61206853
12,2019,중랑구,영화상영관,CGV상봉, 상봉로131 ,127.0921776,37.59740662
13,2019,중랑구,영화상영관,메가박스 상봉점, 망우로30길 3 5층 사무실 ,127.0747508,37.59308067
14,2019,금천구,영화상영관,롯데시네마 독산, 시흥대로 399 ,126.8970019,37.46935918
15,2019,금천구,영화상영관,롯데시네마 가산디지털, 디지털로10길 9 ,126.8890553,37.47761902
16,2019,광진구,영화상영관,CGV 건대입구,서울특별시 광진구 아차산로30길 26,127.0668877,37.53976076
17,2019,서초구,영화상영관,메가박스 센트럴점, 서울시 서초구 신반포로 176  ,127.002413,37.50393518
18,2019,서초구,영화상영관,메가박스 강남점, 서울시 서초구 서초대로 77길 3  ,127.0265048,37.49806091
19,2019,서대문구,영화상영관,CGV신촌아트레온 , 서울특별시 서대문구 신촌로 129 지하2~3층  ,126.9403281,37.55656393
20,2019,서대문구,영화상영관,아트하우스 모모이화?KB 시네마 , 서울특별시 서대문구 이화여대길 52  ,126.9502888,37.56446452
21,2019,서대문구,영화상영관,필름포럼, 서울특별시 성산로 527  ,126.9440902,37.5637751
22,2019,서대문구,영화상영관,메가박스 신촌점, 서울특별시 서대문구 신촌역로 30 5층  ,126.942387,37.55982413
23,2019,송파구,영화상영관,CGV 송파, 송파구 충민로 66  ,127.1249618,37.47761484
24,2019,송파구,영화상영관,롯데시네마 월드타워, 송파구 올림픽로 300 엔터테인먼트동 5~11층  ,127.1044469,37.51375196
25,2019,송파구,영화상영관,메가박스 송파파크하비오점, 송파구 송파대로 111 204동 비162호  ,127.1249139,37.47966838
26,2019,광진구,영화상영관,롯데시네마 건대입구점,  아차산로 272 ,127.0729962,37.53855827
27,2019,광진구,영화상영관,메가박스군자점,  능동로 289 ,127.0783445,37.55579041
28,2019,광진구,영화상영관,KU시네마테크,  능동로 120 ,127.0747119,37.53918267
29,2019,영등포구,영화상영관,CGV 여의도, 국제금융로 10  ,126.9248767,37.52517752
30,2019,영등포구,영화상영관,CGV 영등포, 영중로 15  4층 ,126.903716,37.51723326
31,2019,영등포구,영화상영관,롯데시네마 영등포,경인로102길 13 ,126.907646,37.5156503
32,2019,동대문구,영화상영관,롯데시네마 청량리점, 왕산로 214  ,127.0511471,37.58419614
33,2019,동대문구,영화상영관,롯데시네마 , 답십리로 288  바우하우스 ,127.072387,37.57192367
34,2019,관악구,영화상영관,롯데시네마 신림, 서울시 관악구 신림로 330  ,126.9302345,37.48385134
35,2019,관악구,영화상영관,롯데시네마 서울대입구, 서울시 관악구 남부순환로 1820  10층 ,126.9520838,37.480948
36,2019,마포구,영화상영관,메가박스중앙㈜상암월드컵경기장점, 서울시 마포구 월드컵로 240 1층  ,126.897273,37.56828845
37,2019,용산구,영화상영관,용산CGV, 한강대로23길55 ,126.9647415,37.5297718
38,2019,용산구,영화상영관,롯데시네마, 청파로74 ,126.9595585,37.53278886
39,2019,동작구,영화상영관,아트나인, 서울특별시 동작구 동작대로 89 골드시네마 12층 ,126.9816657,37.48461403
40,2019,동작구,영화상영관,메가박스 이수, 서울특별시 동작구 동작대로 89 골드시네마  ,126.9816657,37.48461403
41,2019,중구,영화상영관,CGV 동대문, 서울특별시 중구 장충단로13길 20.  10층11층 ,127.0076665,37.56873455
42,2019,중구,영화상영관,청춘극장, 서울특별시 중구 새문안로 22 ,126.9686448,37.56712921
43,2019,중구,영화상영관,명보아트시네마, 서울특별시 중구 마른내로 47 5층 명보아트시네마 ,126.9932142,37.56470562
44,2019,중구,영화상영관,롯데시네마 황학, 서울특별시 중구 청계천로 400 ,127.0214639,37.57081055
45,2019,중구,영화상영관,메가박스 동대문점, 서울특별시 중구 장충단로 247  ,127.0073582,37.56680212
46,2019,중구,영화상영관,롯데시네마 에비뉴엘, 서울특별시 중구 남대문로 73 ,126.9816381,37.56420461
47,2019,중구,영화상영관,CGV 명동, 서울특별시 중구 명동길 14 ,126.9828877,37.56341165
48,2019,중구,영화상영관,CGV 명동역, 서울특별시 중구 퇴계로 123 ,126.9853643,37.5612659
49,2019,중구,영화상영관,서울애니씨네마, 서울특별시 중구 소파로 126 ,126.988288,37.55831456
50,2019,중구,영화상영관,대한극장, 서울특별시 중구 퇴계로 212 ,126.9953436,37.56107543
51,2019,강동구,영화상영관,메가박스 강동, 강동구 성내로 48  ,127.1253574,37.52844553
52,2019,강동구,영화상영관,롯데시네마강동, 강동구 천호옛길 85  ,127.1253356,37.53663339
53,2019,강동구,영화상영관,CGV 천호, 강동구 양재대로 1571 4층  ,127.1422553,37.54571459
54,2019,성북구,영화상영관,CGV성신여대입구,  동소문로 106 10층 ,127.0170888,37.59257476
55,2019,성북구,영화상영관,아리랑시네센터, 아리랑로 82 ,127.0138937,37.60011909
56,2019,강남구,영화상영관,이봄씨어터, 서울특별시 강남구 압구정로10길 9 지하2층  ,127.0220236,37.52298749
57,2019,강남구,영화상영관,CGV 압구정점, 서울특별시 강남구 압구정로30길 45 ,127.0294032,37.52435027
58,2019,강남구,영화상영관,CGV 압구정점, 서울특별시 강남구 논현로 848 ,127.028837,37.5245744
59,2019,강남구,영화상영관,CGV 강남점, 서울특별시 강남구 강남대로 438 스타플렉스 4층 ,127.0263361,37.50164281
60,2019,강남구,영화상영관,CGV 청담 씨네시티점, 서울특별시 강남구 도산대로 323 ,127.0370163,37.52289716
61,2019,강남구,영화상영관,롯데시네마 브로드웨이, 서울특별시 강남구 도산대로8길 8 ,127.0219418,37.51637054
62,2019,강남구,영화상영관,롯데시네마 씨티관, 서울특별시 강남구 강남대로 422 ,127.0269849,37.50039414
63,2019,강남구,영화상영관,메가박스 코엑스점, 서울특별시 강남구 봉은사로 524 ,127.0572509,37.51283208
64,2019,은평구,영화상영관,CGV불광, 서울특별시 은평구불광로 20 ,126.9289385,37.60973577
65,2019,은평구,영화상영관,롯데시네마은평, 서울특별시 은평구통일로 1050 ,126.9179003,37.63753667
66,2019,은평구,영화상영관,메가박스은평, 서울특별시 은평구통일로 830 ,126.9227267,37.61782004
67,2019,종로구,영화상영관,낭만극장, 서울시 종로구 삼일대로 428 ,126.9879025,37.57276352
68,2019,종로구,영화상영관,인디스페이스, 서울시 종로구 돈화문로 13 3층  ,126.9916655,37.56969434
69,2019,종로구,영화상영관,CGV 피카디리, 서울시 종로구 돈화문로5가길 1  ,126.9912303,37.57102751
70,2019,종로구,영화상영관,CGV 대학로, 서울시 종로구 대명길 28  ,126.9998426,37.58345795
71,2019,종로구,영화상영관,씨네큐브 광화문, 서울시 종로구 새문안로 68  ,126.9721395,37.56964251
72,2019,종로구,영화상영관,서울아트시네마, 서울시 종로구 돈화문로 13 3층  ,126.9916655,37.56969434
73,2019,종로구,영화상영관,㈜추억을 파는 극장, 서울시 종로구 삼일대로 428 ,126.9879025,37.57276352
74,2019,종로구,영화상영관,서울극장, 서울시 종로구 돈화문로 13 ,126.9916655,37.56969434
75,2019,강서구,영화상영관,메가박스중앙㈜ 마곡지점, 공항대로 247 4층 ,126.8352392,37.55931354
76,2019,강서구,영화상영관,롯데시네마 가양, 양천로 476 4~6층 ,126.85325,37.5615904
77,2019,강서구,영화상영관,메가박스중앙㈜화곡지점, 화곡로 142메가스퀘어 401호  ,126.8375818,37.54056658
78,2019,강서구,영화상영관,롯데시네마 김포공항 , 하늘길 38  스카이파크 ,126.8029604,37.57136985
79,2019,광진구,영화상영관,CGV강변11,  광나루로56길 85 10층 ,127.0956922,37.53572518
80,2019,구로구,영화상영관,넥스트엔터테인먼트월드, 구로구 새말로 97 신도림테크노마트 12층 ,126.8902273,37.50704384
81,2019,성동구,영화상영관,왕십리CGV, 왕십리광장로 17 ,127.0383942,37.56144175
82,2019,구로구,영화상영관,CGV 구로, 서울특별시 구로구  구로중앙로 152 애경백화점 5층  ,126.882773,37.50116014
83,2019,구로구,영화상영관,롯데시네마 신도림점, 서울특별시 구로구 경인로 662 ,126.888213,37.50812307
84,2019,양천구,영화상영관,메가박스씨너스 목동점, 목1동 917-6 행복한세상백화점 6층 ,126.8760837,37.52937346
85,2019,양천구,영화상영관,CGV 목동, 목1동 916번지 현대백화점 지하2층 ,126.8750348,37.52685433
86,2019,도봉구,영화상영관,씨네그릴, 도봉로 558 3~7층  ,127.038881,37.6545328
87,2017,중구,영화상영관,명보아트시네마,서울시 중구  마른내로 47 5층 명보아트시네마,126.9932142,37.56470562
88,2017,중구,영화상영관,롯데시네마 황학, 청계천로 400 서울시 중구  청계천로 400,127.0214639,37.57081055
89,2017,중구,영화상영관,메가박스 동대문점,서울시 중구  장충단로 247 ,127.0073582,37.56680212
90,2017,중구,영화상영관,롯데시네마 에비뉴엘,서울시 중구  남대문로 73,126.9816381,37.56420461
91,2017,중구,영화상영관,CGV 명동,서울시 중구  명동길 14,126.9828877,37.56341165
92,2017,중구,영화상영관,CGV 명동역,서울시 중구  퇴계로 123,126.9853643,37.5612659
93,2017,중구,영화상영관,서울애니씨네마,서울시 중구  소파로 126,126.988288,37.55831456
94,2017,중구,영화상영관,대한극장,서울시 중구  퇴계로 212,126.9953436,37.56107543
95,2017,중랑구,영화상영관,CGV상봉,서울시 중랑구 상봉로131,127.0921776,37.59740662
96,2017,중랑구,영화상영관,메가박스 상봉점,서울시 중랑구 망우로30길 3 5층 사무실,127.0747508,37.59308067
97,2017,영등포구,영화상영관,CGV 여의도,서울시 영등포구 영등포구 국제금융로 10 ,126.9248767,37.52517752
98,2017,영등포구,영화상영관,CGV 영등포,서울시 영등포구 영등포구 영중로 15  4층,126.903716,37.51723326
99,2017,영등포구,영화상영관,롯데시네마 영등포,서울시 영등포구 영등포구 경인로 846 7층 ,126.907666,37.51566803
100,2017,노원구,영화상영관,롯데시네마 수락산,서울시 노원구  상계동 1132-35번지 3층~9층 ,127.0556509,37.67655842
101,2017,노원구,영화상영관,CGV 하계관,서울시 노원구  섬밭로 258 ,127.0649151,37.63910978
102,2017,노원구,영화상영관,CGV 중계관,서울시 노원구  동일로 204가길12,127.068668,37.63985808
103,2017,노원구,영화상영관,롯데시네마노원,서울시 노원구  동일로 1414 ,127.0613917,37.65527873
104,2017,동작구,영화상영관,아트나인,서울시 동작구 동작대로 89 골드시네마 12층,126.9816657,37.48461403
105,2017,동작구,영화상영관,메가박스 이수,서울시 동작구 동작대로 89 골드시네마 ,126.9816657,37.48461403
106,2017,서초구,영화상영관,메가박스 강남점, 서초동 서초대로 77길 3 서울시 서초구  서초동 서초대로 77길 3,127.0265048,37.49806091
107,2017,서초구,영화상영관,메가박스 센트럴점,서울시 서초구  신반포로 176 센트럴시티빌딩 지하 1층,127.002413,37.50393518
108,2017,마포구,영화상영관,씨제이씨지브이 홍대,서울시 마포구  양화로 153 ,126.9226319,37.55649437
109,2017,마포구,영화상영관,롯데시네마 합정관,서울시 마포구  양화로 45 2층 ,126.9139502,37.5515008
110,2017,마포구,영화상영관,롯데시네마 누리꿈관,서울시 마포구  월드컵북로 396 4층 ,126.889783,37.57942834
111,2017,마포구,영화상영관,롯데시네마 홍대입구관,서울시 마포구  양화로 176 8층 ,126.9249862,37.55724678
112,2017,마포구,영화상영관,상상마당 시네마,서울시 마포구  어울마당로 65 지하4층 ,126.921063,37.5509577
113,2017,마포구,영화상영관,씨제이CGV 상암10,서울시 마포구  월드컵로 240 1층 ,126.897273,37.56828845
114,2017,강동구,영화상영관,㈜씨네플랜CGV강동,서울시 강동구  성내로 48 ,127.1253574,37.52844553
115,2017,강동구,영화상영관,CGV 천호,서울시 강동구  양재대로 1571 4층 ,127.1422553,37.54571459
116,2017,용산구,영화상영관,용산CGV,서울시 용산구 한강대로23길55,126.9647415,37.5297718
117,2017,용산구,영화상영관,롯데시네마,서울시 용산구 청파로74,126.9595585,37.53278886
118,2017,종로구,영화상영관,서울극장,서울시 종로구  돈화문로 13,126.9916655,37.56969434
119,2017,종로구,영화상영관,㈜추억을 파는 극장,서울시 종로구  삼일대로 428,126.9879025,37.57276352
120,2017,종로구,영화상영관,서울아트시네마,서울시 종로구  돈화문로 13 3층 ,126.9916655,37.56969434
121,2017,종로구,영화상영관,씨네큐브 광화문,서울시 종로구  새문안로 68 ,126.9721395,37.56964251
122,2017,종로구,영화상영관,CGV 대학로,서울시 종로구  대명길 28 ,126.9998426,37.58345795
123,2017,종로구,영화상영관,CGV 피카디리,서울시 종로구  돈화문로5가길 1 ,126.9912303,37.57102751
124,2017,종로구,영화상영관,인디스페이스,서울시 종로구  돈화문로 13 3층 ,126.9916655,37.56969434
125,2017,종로구,영화상영관,에무시네마,서울시 종로구  경희궁1가길 7 2층 ,126.9690111,37.57206892
126,2017,금천구,영화상영관,롯데시네마 독산 ,서울시 금천구 시흥대로 399,126.8970019,37.46935918
127,2017,금천구,영화상영관,롯데시네마 가산디지털,서울시 금천구 디지털로10길 9,126.8890553,37.47761902
128,2017,서대문구,영화상영관,CGV신촌아트레온 ,서울시 서대문구  신촌로 129 지하2~3층 ,126.9403281,37.55656393
129,2017,서대문구,영화상영관,아트하우스 모모-이화?KB 시네마 ,서울시 서대문구  이화여대길 52 ,126.9502888,37.56446452
130,2017,서대문구,영화상영관,필름포럼,서울특별시 서대문구 성산로 527 ,126.9440902,37.5637751
131,2017,서대문구,영화상영관,메가박스 신촌점,서울시 서대문구  신촌역로 30 5층 ,126.942387,37.55982413
132,2017,양천구,영화상영관,CGV 목동,서울시 양천구  목동동로 257 현대백화점 지하2층 ,126.8746191,37.52732178
133,2017,양천구,영화상영관,메가박스씨너스 목동점,서울시 양천구  목동동로 309 행복한세상백화점 6층 ,126.8760086,37.52914353
134,2017,강동구,영화상영관,롯데시네마강동,서울시 강동구  천호옛길 85 ,127.1253356,37.53663339
135,2017,관악구,영화상영관,롯데시네마 서울대입구,서울시 관악구  남부순환로 1820  10층,126.9520838,37.480948
136,2017,관악구,영화상영관,롯데시네마 신림,서울시 관악구  신림로 330 ,126.9302345,37.48385134
137,2017,광진구,영화상영관,CGV강변11,서울시광진구 광나루로56길 85 10층,127.0956922,37.53572518
138,2017,광진구,영화상영관,CGV군자점,서울시광진구 능동로 289,127.0783445,37.55579041
139,2017,광진구,영화상영관,롯데시네마 건대입구점,서울시광진구 아차산로 272,127.0729962,37.53855827
140,2017,광진구,영화상영관,KU시네마테크,서울시광진구 능동로 120,127.0747119,37.53918267
141,2017,강남구,영화상영관,CGV 강남점,서울시 강남구  강남대로 438스타플렉스 4층,127.0263361,37.50164281
142,2017,강남구,영화상영관,롯데시네마 브로드웨이, 서울시 강남구  도산대로8길 8,127.0219418,37.51637054
143,2017,강남구,영화상영관,롯데시네마 씨티관,서울시 강남구  강남대로 422,127.0269849,37.50039414
144,2017,강남구,영화상영관,CGV 압구정점,서울시 강남구  압구정로30길 45,127.0294032,37.52435027
145,2017,강남구,영화상영관,CGV 청담 씨네시티점,서울시 강남구  도산대로 323,127.0370163,37.52289716
146,2017,강남구,영화상영관,메가박스 코엑스점,서울시 강남구  봉은사로 524,127.0572509,37.51283208
147,2017,강남구,영화상영관,CGV 압구정점,서울시 강남구  논현로 848,127.028837,37.5245744
148,2017,강서구,영화상영관,롯데시네마 김포공항 ,서울시 강서구 하늘길 38  스카이파크,126.8029604,37.57136985
149,2017,강서구,영화상영관,메가박스㈜화곡지점,서울시 강서구 화곡로 142 ,126.8375818,37.54056658
150,2017,강서구,영화상영관,롯데시네마 가양,서울시 강서구 양천로 476 4~6층,126.85325,37.5615904
151,2017,강남구,영화상영관,이봄씨어터,서울시 강남구  압구정로10길 9 지하2층 ,127.0220236,37.52298749
152,2017,은평구,영화상영관,CGV불광,서울시 은평구 불광로 20,126.9289385,37.60973577
153,2017,은평구,영화상영관,메가박스은평,서울시 은평구 통일로 830,126.9227267,37.61782004
154,2017,은평구,영화상영관,롯데시네마은평,서울시 은평구 통일로 1050,126.9179003,37.63753667
155,2017,성북구,영화상영관,아리랑시네센터,서울시 성북구  아리랑로 82,127.0138937,37.60011909
156,2017,성북구,영화상영관,KU시네마트랩,서울시 성북구  안암로 145 미디어관 4층,127.0316983,37.58870342
157,2017,성북구,영화상영관,CGV성신여대입구,서울시 성북구  동소문로 106 10층,127.0170888,37.59257476
158,2017,성동구,영화상영관,왕십리CGV,서울시 성동구 왕십리광장로 17,127.0383942,37.56144175
159,2017,송파구,영화상영관,메가박스 송파파크하비오점,서울시 송파구  송파대로 111 204동 비162호 ,127.1249139,37.47966838
160,2017,송파구,영화상영관,롯데시네마 월드타워,서울시 송파구  올림픽로 300 엔터테인먼트동 5~11층 ,127.1044469,37.51375196
161,2017,송파구,영화상영관,CGV 송파,서울시 송파구  충민로 66 ,127.1249618,37.47761484
162,2017,동대문구,영화상영관,롯데시네마 청량리점,서울시 동대문구 왕산로 214 ,127.0511471,37.58419614
163,2017,동대문구,영화상영관,롯데시네마 ,서울시 동대문구 답십리로 288  바우하우스,127.072387,37.57192367
164,2017,종로구,영화상영관,에무 시네마,서울시 종로구 신문로2가,126.9697222,37.57066229
165,2017,강서구,영화상영관,CGV 등촌,서울시 강서구 공항대로45,126.85603,37.5578457
166,2017,구로구,영화상영관,CGV프라임 신도림,서울시 구로구 새말로 97 신도림테크노마트 11~13층 ,126.8902273,37.50704384
167,2017,구로구,영화상영관,CGV구로,서울시 구로구  구로중앙로 152 애경백화점 5층 ,126.882773,37.50116014
168,2017,강북구,영화상영관,메가박스,서울시 강북구  도봉로 399 ,127.0298062,37.64240751
169,2017,강북구,영화상영관,CGV 미아점,서울시 강북구  도봉로 34 ,127.0307216,37.61206853
170,2016,동작구,영화상영관,메가박스 이수,서울시 동작구 사당동 147-53 골드시네마,126.9815205,37.48476096
171,2016,동작구,영화상영관,아트나인,서울시 동작구 사당동 147-53 골드시네마12층,126.9815205,37.48476096
172,2015,양천구,영화상영관,CGV 목동,서울 양천구  양천구 목동동로 257 현대백화점 지하2층 ,126.8746191,37.52732178
173,2015,양천구,영화상영관,메가박스씨너스 목동점,서울 양천구  양천구 목동동로 309 행복한세상백화점 6층 ,126.8760086,37.52914353
174,2015,구로구,영화상영관,CGV구로,구로구 구로동 573 애경백화점 5층,126.8828393,37.50117652
175,2015,구로구,영화상영관,CGV프라임 신도림,구로구 구로동 3-25 신도림테크노마트 11층~13층,126.8903191,37.50697392
176,2015,영등포구,영화상영관,63아트홀,서울 영등포구 영등포구 63로 50 ,126.9399093,37.51966416
177,2015,영등포구,영화상영관,롯데시네마 영등포,서울 영등포구 영등포구 경인로 846 7층 ,126.907666,37.51566803
178,2015,영등포구,영화상영관,CJ CGV영등포,서울 영등포구 영등포구 영중로 15  4층,126.903716,37.51723326
179,2015,영등포구,영화상영관,CGV 여의도,서울 영등포구 영등포구 국제금융로 10 ,126.9248767,37.52517752
180,2015,강남구,영화상영관,인디플러스,서울시 강남구 도산대로8길 8,127.0219418,37.51637054
181,2015,강남구,영화상영관,CGV 강남점,서울 강남구 강남구 강남대로 438,127.0263361,37.50164281
182,2015,강남구,영화상영관,롯데시네마 브로드웨이,서울 강남구 강남구 도산대로8길 8,127.0219418,37.51637054
183,2015,강남구,영화상영관,롯데시네마 씨티관,서울 강남구 강남구 강남대로 422,127.0269849,37.50039414
184,2015,강남구,영화상영관,CGV 압구정점,서울 강남구 강남구 압구정로30길 45,127.0294032,37.52435027
185,2015,강남구,영화상영관,CGV 청담 씨네시티점,서울 강남구 강남구 도산대로 323,127.0370163,37.52289716
186,2015,강남구,영화상영관,메가박스씨너스 코엑스점,서울시 강남구 봉은사로 524,127.0572509,37.51283208
187,2015,마포구,영화상영관,씨제이CGV 상암10,서울 마포구 성산동 515 월드컵몰내 1층 ,126.897273,37.56828845
188,2015,마포구,영화상영관,상상마당 시네마,서울 마포구 서교동 367-5 지하34층 ,126.9210339,37.55100228
189,2015,마포구,영화상영관,롯데시네마 홍대입구관,서울 마포구 동교동 166-6 ,126.9253081,37.55732961
190,2015,마포구,영화상영관,롯데시네마 누리꿈관,서울 마포구 상암동 1605 ,126.8904192,37.57940641
191,2015,마포구,영화상영관,롯데시네마 합정관,서울 마포구 서교동 490  ,126.9137688,37.55074672
192,2015,마포구,영화상영관,씨제이씨지브이 홍대,서울 마포구 동교동 159-8 ,126.9227583,37.55642625
193,2015,강남구,영화상영관,CGV 압구정점,서울 강남구 강남구 논현로 848,127.028837,37.5245744
194,2015,구로구,영화상영관,롯데쇼핑롯데시네마 신도림점,구로구  신도림동 692 디큐브시티 제타워동 7~8층,126.8888976,37.50858485
195,2015,서대문구,영화상영관,CGV신촌아트레온,서울 서대문구  서대문구 신촌로 129 ,126.9403281,37.55656393
196,2015,서대문구,영화상영관,메가박스 신촌점,서울 서대문구  서대문구 신촌역로 30 ,126.942387,37.55982413
197,2015,서대문구,영화상영관,필름포럼,서울 서대문구  서대문구 성산로 533 하늬솔 빌딩 A동 지하1층,126.9445671,37.56414599
198,2015,서대문구,영화상영관,아트하우스 모모-이화KB 시네마,서대문구 이화여대길 52  ECC 지하4층,126.9502888,37.56446452
199,2015,강남구,영화상영관,조이앤시네마,강남구 압구정로10길 9 지하2층 ,127.0220236,37.52298749
200,2015,금천구,영화상영관,롯데시네마 가산디지털,서울 금천구 가산동 60-8,126.8890844,37.4775821
201,2015,금천구,영화상영관,롯데시네마 독산,서울 금천구 독산동 291-5,126.8974526,37.46940741
202,2015,용산구,영화상영관,롯데시네마,서울 용산구 청파로74,126.9595585,37.53278886
203,2015,용산구,영화상영관,용산CGV,서울 용산구 한강대로23길55,126.9647415,37.5297718
204,2015,강동구,영화상영관,롯데시네마강동,서울 강동구  강동구 천호옛길 85 ,127.1253356,37.53663339
205,2015,강동구,영화상영관,CGV강동,서울 강동구  강동구 성내로 48 ,127.1253574,37.52844553
206,2015,은평구,영화상영관,메가박스은평,서울 은평구 불광동 304-2,126.9227401,37.61782357
207,2015,은평구,영화상영관,CGV불광,서울 은평구 대조동 14-240,126.928979,37.6097018
208,2015,노원구,영화상영관,롯데시네마노원,서울 노원구  노원구 동일로 1414 ,127.0613917,37.65527873
209,2015,노원구,영화상영관,CGV 하계관,서울 노원구  노원구 섬밭로 258 ,127.0649151,37.63910978
210,2015,노원구,영화상영관,CGV 중계관,서울 노원구  노원구 동일로 204가길12,127.068668,37.63985808
211,2015,강북구,영화상영관,CGV 미아점,강북구  미아동 35-4,127.0307153,37.61205664
212,2015,강북구,영화상영관,메가박스,강북구 수유동 168-12,127.0298524,37.6423911
213,2015,서초구,영화상영관,메가박스 강남점,서울 서초구  서초구 서초동 서초대로 77길 3,127.0265048,37.49806091
214,2015,서초구,영화상영관,메가박스 센트럴점,서초구 신반포로 176 센트럴시티빌딩 지하 1층,127.002413,37.50393518
215,2015,성북구,영화상영관,아리랑시네센터,서울 성북구 아리랑로 82,127.0138937,37.60011909
216,2015,성북구,영화상영관,CGV성신여대입구,서울 성북구  동소문로 106,127.0170888,37.59257476
217,2015,성북구,영화상영관,KU시네마트랩,서울 성북구 안암로 145 ,127.0316983,37.58870342
218,2015,동대문구,영화상영관,롯데시네마 ,서울 동대문구 답십리로 288  바우하우스,127.072387,37.57192367
219,2015,동대문구,영화상영관,롯데시네마 청량리점,서울 동대문구 왕산로 214 ,127.0511471,37.58419614
220,2015,강서구,영화상영관,cgv김포공항9 ,서울 강서구 하늘길 38 ,126.8029604,37.57136985
221,2015,강서구,영화상영관,롯데시네마 김포공항 ,서울시 강서구 하늘길 38  스카이파크,126.8029604,37.57136985
222,2015,송파구,영화상영관,CGV 송파 ,서울 송파구 충민로 66 ,127.1249618,37.47761484
223,2015,송파구,영화상영관,롯데시네마 월드타워관 ,서울 송파구 올림픽로 300,127.1044469,37.51375196
224,2015,관악구,영화상영관,롯데시네마 서울대입구,서울 관악구  남부순환로 1820  10층,126.9520838,37.480948
225,2015,관악구,영화상영관,롯데시네마 신림,서울 관악구  신림로 330 ,126.9302345,37.48385134
226,2015,동작구,영화상영관,아트나인,서울 동작구 사당동 147-53 골드시네마12층,126.9815205,37.48476096
227,2015,동작구,영화상영관,메가박스 이수,서울 동작구 사당동 147-53 골드시네마,126.9815205,37.48476096
228,2015,강서구,영화상영관,롯데시네마 김포공항 ,서울 강서구 하늘길 38  스카이파크,126.8029604,37.57136985
229,2015,광진구,영화상영관,CGV강변11,서울 광진구 광나루로56길 85 10층,127.0956922,37.53572518
230,2015,광진구,영화상영관,CGV군자,서울 광진구 능동로 289,127.0783445,37.55579041
231,2015,광진구,영화상영관,롯데시네마 건대입구점,서울 광진구 아차산로 272,127.0729962,37.53855827
232,2015,광진구,영화상영관,KU시네마테크,서울시 광진구 능동로 120,127.0747119,37.53918267
233,2015,광진구,영화상영관,쇼앤톡카페시네마,서울시 광진구 능동로31길 14,127.0777786,37.55588791
234,2015,강남구,영화상영관,영화진흥위원회 인디플러스,서울 강남구 강남구 도산대로8길 8,127.0219418,37.51637054
235,2015,강남구,영화상영관,메가박스 코엑스점,서울 강남구 강남구 봉은사로 524,127.0572509,37.51283208
236,2015,광진구,영화상영관,KU시네마테크,서울 광진구 능동로 120,127.0747119,37.53918267
237,2015,성동구,영화상영관,왕십리CGV,서울 성동구 왕십리광장로 17,127.0383942,37.56144175
238,2015,중랑구,영화상영관,메가박스 상봉점,서울 중랑구 상봉2동 130-3 5층사무실,127.0746813,37.5932328
239,2015,종로구,영화상영관,서울극장,서울 종로구 관수동 59-7,126.9917927,37.56979922
240,2015,종로구,영화상영관,허리우드클래식,서울 종로구 낙원동 288,126.9876446,37.57221695
241,2015,종로구,영화상영관,서울아트시네마,서울 종로구 낙원동 251 ,126.9881628,37.57280788
242,2015,종로구,영화상영관,씨네큐브광화문1관,서울 종로구 신문로1가 226,126.9722879,37.56972832
243,2015,종로구,영화상영관,CGV대학로1관,서울 종로구 명륜2가 41-9,126.9998406,37.5834703
244,2015,종로구,영화상영관,롯데시네마 피카디리,서울 종로구 돈의동 137,126.9912292,37.57103715
245,2015,종로구,영화상영관,씨네코드 선재,서울 종로구 계동 102-1,126.9863651,37.57924817
246,2015,종로구,영화상영관,인디스페이스,서울 종로구 신문로2가 1-153,126.9716847,37.57065584
247,2015,중구,영화상영관,대한극장,서울 중구  중구 필동2가 19-1,126.9953513,37.56107282
248,2015,중구,영화상영관,서울애니시네마,서울 중구  중구 예장동 8-145,126.9879046,37.55841426
249,2015,중구,영화상영관,CGV 명동역,중구 충무로2가 65-9 타비 10~11층,126.9853531,37.56132924
250,2015,중구,영화상영관,CGV 명동,중구 명동2가 83-5 눈스퀘어 8층,126.9828908,37.56341417
251,2015,중구,영화상영관,롯데시네마 에비뉴엘,서울 중구  중구 소공동 7 ,126.9815908,37.56421956
252,2015,중구,영화상영관,스폰지하우스,서울 중구  중구 태평로1가 61-21,126.9758808,37.56826013
253,2015,중구,영화상영관,메가박스 동대문점,중구 을지로6가 18-21 굿모닝시티 6층,127.0072809,37.56687321
254,2015,중구,영화상영관,롯데시네마 황학,서울 중구  중구 청계천로400,127.0214639,37.57081055
255,2015,중구,영화상영관,명보아트홀,서울 중구 중구 마른내로 47 6층,126.9932142,37.56470562
256,2015,중구,영화상영관,청춘극장,서울시 중구 중구 새문안로 22,126.9686448,37.56712921
257,2014,강남구,영화상영관,CGV 압구정점,서울시 강남구 논현로 848,127.028837,37.5245744
258,2014,강남구,영화상영관,메가박스씨너스 코엑스점,서울시 강남구 봉은사로 524,127.0572509,37.51283208
259,2014,강남구,영화상영관,CGV 청담 씨네시티점,서울시 강남구 도산대로 323,127.0370163,37.52289716
260,2014,강남구,영화상영관,CGV 압구정점,서울시 강남구 압구정로30길 45,127.0294032,37.52435027
261,2014,강남구,영화상영관,롯데시네마 씨티관,서울시 강남구 강남대로 422,127.0269849,37.50039414
262,2014,강남구,영화상영관,롯데시네마 브로드웨이,서울시 강남구 도산대로8길 8,127.0219418,37.51637054
263,2014,강남구,영화상영관,CGV 강남점,서울시 강남구 강남대로 438,127.0263361,37.50164281
264,2014,서초구,영화상영관,메가박스 센트럴점,서울시 서초구 신반포로 176 지하1층,127.002413,37.50393518
265,2014,서초구,영화상영관,메가박스 강남점,서울시 서초구 서초대로77길 3 8층 ,127.0265048,37.49806091
266,2014,강동구,영화상영관,롯데시네마강동,서울시 강동구 성내동 44-1,127.1253375,37.53662132
267,2014,강동구,영화상영관,CGV강동,서울시 강동구 성내동 549-1,127.1251486,37.52853162
268,2014,송파구,영화상영관,CGV 송파,서울시 송파구 충민로 66 ,127.1249618,37.47761484
269,2014,송파구,영화상영관,롯데시네마 롯데월드관,서울시 송파구 올림픽로 240,127.0981418,37.51130961
270,2014,관악구,영화상영관,롯데시네마신림,서울시 관악구 서원동 1641-2,126.9301738,37.48383653
271,2014,관악구,영화상영관,롯데씨네마 서울대입구,서울시 관악구 청룡동 862-1 11충,126.952066,37.4809346
272,2014,동작구,영화상영관,메가박스 이수,서울시 동작구 사당동 147-53 골드시네마,126.9815205,37.48476096
273,2014,동작구,영화상영관,아트나인,서울시 동작구 사당동 147-53 골드시네마12층,126.9815205,37.48476096
274,2014,영등포구,영화상영관,CGV 여의도,서울시 영등포구 국제금융로 10 ,126.9248767,37.52517752
275,2014,영등포구,영화상영관,CGV 영등포,서울시 영등포구 영중로 15 ,126.903716,37.51723326
276,2014,영등포구,영화상영관,롯데시네마 영등포,서울시 영등포구 경인로 846,126.907666,37.51566803
277,2014,영등포구,영화상영관,63아트홀,서울시 영등포구 63로 50 ,126.9399093,37.51966416
278,2014,금천구,영화상영관,CJ CGV독산,서울시 금천구 시흥대로 399,126.8970019,37.46935918
279,2014,금천구,영화상영관,롯데시네마 가산하이힐,서울시 금천구 디지털로10길 9,126.8890553,37.47761902
280,2014,구로구,영화상영관,롯데쇼핑롯데시네마 신도림점,서울시 구로구 경인로 662,126.888213,37.50812307
281,2014,구로구,영화상영관,CGV프라임 신도림,구로구 구로동 3-25 신도림테크노마트 12층,126.8903191,37.50697392
282,2014,구로구,영화상영관,CGV구로,서울시 구로구 구로동 573 애경백화점 5층,126.8828393,37.50117652
283,2014,양천구,영화상영관,메가박스씨너스 목동점,양천구 목1동 917-6 행복한세상백화점 5층 7층,126.8760837,37.52937346
284,2014,양천구,영화상영관,CGV 목동,양천구 목1동 916번지 현대백화점 지하2층,126.8750348,37.52685433
285,2014,마포구,영화상영관,롯데시네마 합정관,서울시 마포구 양화로 45 2층 ,126.9139502,37.5515008
286,2014,마포구,영화상영관,롯데시네마 누리꿈관,서울시 마포구 월드컵북로 396 4층 ,126.889783,37.57942834
287,2014,마포구,영화상영관,롯데시네마 홍대입구관,서울시 마포구 양화로 176  8층 ,126.9249862,37.55724678
288,2014,마포구,영화상영관,상상마당 시네마,마포구 어울마당로 65 지하4층 ,126.921063,37.5509577
289,2014,마포구,영화상영관,씨제이씨지브이 상암10,마포구 월드컵로 240 1층사무실 ,126.897273,37.56828845
290,2014,강서구,영화상영관,롯데시네마 김포공항 , 강서구 하늘길 38  스카이파크,126.8029604,37.57136985
291,2014,강서구,영화상영관,cgv김포공항9 ,서울시 강서구 하늘길 38 ,126.8029604,37.57136985
292,2014,서대문구,영화상영관,아트하우스 모모-이화KB 시네마,서대문구 이화여대길 52 ,126.9502888,37.56446452
293,2014,서대문구,영화상영관,필름포럼,서대문구 대신동 85-1 하늬솔 빌딩 A동 지하1층,126.9440839,37.56374347
294,2014,서대문구,영화상영관,메가박스 신촌점,서울시 서대문구 신촌역로 30 ,126.942387,37.55982413
295,2014,서대문구,영화상영관,CGV신촌아트레온,서울시 서대문구 신촌로 129 ,126.9403281,37.55656393
296,2014,은평구,영화상영관,CGV불광,서울시 은평구 대조동 14-240,126.928979,37.6097018
297,2014,은평구,영화상영관,메가박스은평,서울시 은평구 불광동 304-2,126.9227401,37.61782357
298,2014,노원구,영화상영관,CGV 중계관,서울시 노원구 동일로 204가길12,127.068668,37.63985808
299,2014,노원구,영화상영관,CGV 하계관,서울시 노원구 섬밭로 258 ,127.0649151,37.63910978
300,2014,노원구,영화상영관,롯데시네마노원,서울시 노원구 동일로 1414 ,127.0613917,37.65527873
301,2014,성북구,영화상영관,CGV성신여대입구,서울시 성북구  동소문로 106,127.0170888,37.59257476
302,2014,성북구,영화상영관,아리랑시네센터,서울시 성북구 아리랑로 82,127.0138937,37.60011909
303,2014,동대문구,영화상영관,롯데시네마 청량리점,서울시 동대문구 전농동591-53,127.0469924,37.58097735
304,2014,동대문구,영화상영관, 롯데시네마 장안점,서울시 동대문구 장안동368-1 바우하우스 12층~14층,127.0723894,37.57192709
305,2014,강북구,영화상영관,메가박스,서울시 강북구 도봉로 399  ,127.0298062,37.64240751
306,2014,강북구,영화상영관,CGV 미아점,서울시 강북구 도봉로 34  ,127.0307216,37.61206853
307,2014,용산구,영화상영관,용산CGV,서울시 용산구 한강로3가 40-999,126.9643004,37.52976806
308,2014,용산구,영화상영관,롯데시네마,서울시 용산구 한강로3가 16-9,126.9597274,37.5328145
309,2014,중구,영화상영관,롯데시네마 황학,서울시 중구   청계천로400,127.0214639,37.57081055
310,2014,중구,영화상영관,메가박스 동대문점,서울시 중구   을지로6가 18-21 굿모닝시티 6층,127.0072809,37.56687321
311,2014,중구,영화상영관,스폰지하우스,서울시 중구   태평로1가 61-21,126.9758808,37.56826013
312,2014,중구,영화상영관,롯데시네마 에비뉴엘,서울시 중구   소공동 7 ,126.9815908,37.56421956
313,2014,중구,영화상영관,CGV 명동,서울시 중구   명동2가 83-5 눈스퀘어 8층,126.9828908,37.56341417
314,2014,중구,영화상영관,CGV 명동역,서울시 중구   충무로2가 65-9 타비 10~11층,126.9853531,37.56132924
315,2014,중구,영화상영관,서울애니시네마,서울시 중구   예장동 8-145,126.9879046,37.55841426
316,2014,중구,영화상영관,대한극장,서울시 중구   필동2가 19-1,126.9953513,37.56107282
317,2014,성동구,영화상영관,왕십리CGV,서울시 성동구 왕십리광장로 17,127.0383942,37.56144175
318,2014,송파구,영화상영관,CGV 송파,서울시 송파구 충민로 66 ,127.1249618,37.47761484
319,2014,송파구,영화상영관,롯데시네마 롯데월드관,서울시 송파구 올림픽로 240,127.0981418,37.51130961
320,2014,강동구,영화상영관,롯데시네마강동,서울시 강동구 성내동 44-1,127.1253375,37.53662132
321,2014,성동구,영화상영관,왕십리CGV,서울시 성동구 왕십리광장로 17,127.0383942,37.56144175
322,2014,동작구,영화상영관,메가박스 이수,서울시 동작구 사당동 147-53 골드시네마,126.9815205,37.48476096
323,2014,관악구,영화상영관,롯데시네마신림,서울시 관악구 신림로 330 ,126.9302345,37.48385134
324,2014,서초구,영화상영관,메가박스 센트럴점,서울시 서초구 신반포로 176 지하1층,127.002413,37.50393518
325,2014,서초구,영화상영관,메가박스 강남점,서울시 서초구 서초대로77길 3 8층,127.0265048,37.49806091
326,2014,구로구,영화상영관,롯데쇼핑롯데시네마 신도림점,서울시 구로구 구로구 경인로 662,126.888213,37.50812307
327,2014,영등포구,영화상영관,CGV 여의도,서울시 영등포구 영등포구 여의도동 23 IFC몰 B3,126.9252983,37.52497858
328,2014,영등포구,영화상영관,CGV 영등포,서울시 영등포구 영등포구 영등포동4가  442 타임스퀘어 4층,126.9033409,37.51707545
329,2014,영등포구,영화상영관,롯데시네마 영등포,서울시 영등포구 영등포구 영등포동  618-496,126.9070351,37.51597487
330,2014,영등포구,영화상영관,63아트홀, 서울시 영등포구 영등포구 여의도동 60 ,126.9400722,37.51983363
331,2014,금천구,영화상영관,CJ CGV독산,서울시 금천구 시흥대로 399,126.8970019,37.46935918
332,2014,강서구,영화상영관,롯데시네마 김포공항 ,서울시 강서구 하늘길 38 ,126.8029604,37.57136985
333,2014,강서구,영화상영관,cgv김포공항9 ,서울시 강서구 하늘길 38,126.8029604,37.57136985
334,2014,서대문구,영화상영관,아트하우스 모모-이화KB 시네마,서울시 서대문구 이화여대길 52,126.9502888,37.56446452
335,2014,서대문구,영화상영관,필름포럼,서울시 서대문구 성산로 527,126.9440902,37.5637751
336,2014,서대문구,영화상영관,CGV신촌아트레온,서울시 서대문구 신촌로 129,126.9403281,37.55656393
337,2014,양천구,영화상영관,메가박스씨너스 목동점,서울시 양천구 목동 917-6 ,126.8760837,37.52937346
338,2014,양천구,영화상영관,CGV 목동8,서울시 양천구 목동 916 ,126.8750348,37.52685433
339,2014,구로구,영화상영관,CGV프라임 신도림,서울시 구로구 구로구 구로동 3-25 신도림테크노마트 12층,126.8903191,37.50697392
340,2014,구로구,영화상영관,CGV구로,서울시 구로구 구로구 구로동 573 애경백화점 5층,126.8828393,37.50117652
341,2014,금천구,영화상영관,롯데시네마 가산하이힐,서울시 금천구 디지털로10길 9,126.8890553,37.47761902
342,2014,마포구,영화상영관,롯데시네마 누리꿈관,서울시 마포구 상암동 1605,126.8904192,37.57940641
343,2014,마포구,영화상영관,롯데시네마 홍대입구관,서울시 마포구 동교동 166-14 외 8필지,126.924967,37.5572257
344,2014,마포구,영화상영관,상상마당 시네마,서울시 마포구 서교동 367-5,126.9210339,37.55100228
345,2014,은평구,영화상영관,CGV불광,서울시 은평구 대조동 14-240,126.928979,37.6097018
346,2014,마포구,영화상영관,메가박스,서울시 마포구 성산동 월드컵몰내 1층,126.897348,37.5682507
347,2014,노원구,영화상영관,CGV 중계관,"서울특별시 노원구 동일로204가길 12(중계동, 홈플러스 8층)",127.068668,37.63985808
348,2014,노원구,영화상영관,CGV 하계관,"서울특별시 노원구 섬밭로 258 (중계동, 건영백화점 지하1층)",127.0649151,37.63910978
349,2014,노원구,영화상영관,롯데시네마노원,서울특별시 노원구 동일로 1414 (롯데백화점 노원점 10층),127.0613917,37.65527873
350,2014,중랑구,영화상영관,메가박스 상봉점,서울시 중랑구 상봉2동 130-3,127.0746813,37.5932328
351,2014,성북구,영화상영관,아리랑시네센터,서울시 성북구 아리랑로 82,127.0138937,37.60011909
352,2014,강북구,영화상영관,CGV 미아점,서울시 강북구 도봉로 34 ,127.0307216,37.61206853
353,2014,동대문구,영화상영관,롯데시네마 청량리점,서울시 동대문구 전농동591-53,127.0469924,37.58097735
354,2014,동대문구,영화상영관, 롯데시네마 장안점,서울시 동대문구 장안동368-1 ,127.0723894,37.57192709
355,2014,광진구,영화상영관,롯데시네마 건대입구점,서울시 광진구  아차산로 262 ,127.0729628,37.53700164
356,2014,광진구,영화상영관,CGV군자,서울시 광진구  능동로 289,127.0783445,37.55579041
357,2014,광진구,영화상영관,CGV강변11,서울시 광진구  광나루로56길 85,127.0956922,37.53572518
358,2014,중구,영화상영관,메가박스 동대문점,서울시 중구  을지로6가 18-21 굿모닝시티 9층,127.0072809,37.56687321
359,2014,중구,영화상영관,스폰지하우스,서울시 중구  태평로1가 61-21,126.9758808,37.56826013
360,2014,중구,영화상영관,CGV 명동,서울시 중구  명동2가 83-5 눈스퀘어 8층,126.9828908,37.56341417
361,2014,중구,영화상영관,CGV 명동역,서울시 중구  충무로2가 65-9 타비 10~11층,126.9853531,37.56132924
362,2014,중구,영화상영관,서울애니시네마,서울시 중구  예장동 8-145,126.9879046,37.55841426
363,2014,중구,영화상영관,대한극장,서울시 중구  필동2가 19-1,126.9953513,37.56107282
364,2014,용산구,영화상영관,용산CGV,서울시 용산구 한강로3가 40-999,126.9643004,37.52976806
365,2014,용산구,영화상영관,롯데시네마,서울시 용산구 한강로3가 16-9,126.9597274,37.5328145
366,2014,종로구,영화상영관,인디스페이스,서울시 종로구 경희궁1길 1,126.9716086,37.5707143
367,2014,종로구,영화상영관,씨네코드 선재,서울시 종로구 북촌로4길20연화빌딩4층영화사진지,126.9862027,37.57917013
368,2014,종로구,영화상영관,CGV대학로1관,서울시 종로구 대명길 28,126.9998426,37.58345795
369,2014,종로구,영화상영관,서울아트시네마,서울시 종로구 삼일대로 428,126.9879025,37.57276352
370,2014,종로구,영화상영관,허리우드클래식,서울시 종로구 삼일대로 428,126.9879025,37.57276352
371,2014,종로구,영화상영관,서울극장,서울시 종로구 돈화문로 13,126.9916655,37.56969434
372,2014,강남구,영화상영관,메가박스씨너스 코엑스점,강남구 삼성동 159 코엑스몰 지하2층,127.0588193,37.51252119
373,2014,강남구,영화상영관,CGV 청담 씨네시티점,강남구 신사동 651-21,127.0370493,37.52289616
374,2014,강남구,영화상영관,CGV 압구정점,강남구 신사동 603-2,127.0288279,37.52458378
375,2014,강남구,영화상영관,CGV 압구정점,강남구 신사동 602,127.0294114,37.52434342
376,2014,강남구,영화상영관,롯데시네마 씨티관,강남구 역삼동 816-7,127.0272202,37.50032624
377,2014,강남구,영화상영관,롯데시네마 브로드웨이,강남구 논현동 3-5,127.0219381,37.51644641
378,2014,강남구,영화상영관,CGV 강남점,강남구 역삼동 814-6 스타플렉스 4층,127.0263749,37.50165244
379,2014,강남구,영화상영관,인디플러스,강남구 논현동 3-5 1층,127.0219381,37.51644641
380,2014,종로구,영화상영관,롯데시네마 피카디리,서울시 종로구 종로구돈화문로5가길 1 지하2층,126.9912303,37.57102751
381,2014,종로구,영화상영관,씨네큐브광화문1관,서울시 종로구 종로구새문안로 68 흥국생명빌딩내,126.9721395,37.56964251
382,2013,성북구,영화상영관,CGV성신여대입구,서울시 성북구 동소문로 106,127.0170888,37.59257476
383,2013,중구,영화상영관,롯데시네마 황학,서울시 중구  청계천로400,127.0214639,37.57081055
384,2013,서대문구,영화상영관,메가박스 신촌점,서울시 서대문구 신촌역로 30 ,126.942387,37.55982413
385,2013,중구,영화상영관,롯데시네마 에비뉴엘,서울시 중구  소공동 7 ,126.9815908,37.56421956
386,2013,종로구,영화상영관,롯데시네마 피카디리,서울시 종로구 돈의동 137 지하2층,126.9912292,37.57103715
387,2013,강북구,영화상영관,메가박스,서울시 강북구 도봉로 399,127.0298062,37.64240751
388,2013,종로구,영화상영관,씨네큐브광화문1관,서울시 종로구 신문로1가 226 흥국생명빌딩내,126.9722879,37.56972832
389,2013,은평구,영화상영관,메가박스은평,서울시 은평구 불광동 304-2 6층7층,126.9227401,37.61782357
390,2013,강동구,영화상영관,CGV강동,서울시 강동구 성내동 549-1,127.1251486,37.52853162
391,2013,동작구,영화상영관,아트나인,서울시 동작구 사당동 147-53 골드시네마12층,126.9815205,37.48476096
392,2013,마포구,영화상영관,롯데시네마 합정관,서울시 마포구 서교동 490 메세나폴리스2층,126.9137688,37.55074672
393,2013,관악구,영화상영관,롯데씨네마 서울대입구,서울시 관악구 남부순환로 1820 ,126.9520838,37.480948
